[
  {
    "id": 1,
    "name": "HOG WILD WITH CHEF BRUNO",
    "outlet_ket": "",
    "province": "BANTEN",
    "city": "KAB TANGERANG",
    "address": "RUKO SOUTH GOLDFINCH SGA/039 JL BOULEVARD SPRINGS GADING SERPONG",
    "zip": "",
    "country": "Indonesia",
    "category": "restaurant",
    "lat": -6.17683,
    "lng": 106.63806
  },
  {
    "id": 2,
    "name": "AD MANDIRI",
    "outlet_ket": "",
    "province": "BANTEN",
    "city": "KODYA TANGERANG",
    "address": "JL RASUNA SAHID PAKOJAN 100 M RT.02/02 DARI MASJID NURUL HUDA PINANG",
    "zip": 15142,
    "country": "Indonesia",
    "category": "cafe",
    "lat": -6.207121385,
    "lng": 106.6582153
  },
  {
    "id": 3,
    "name": "GREEN MUAYTHAI",
    "outlet_ket": "",
    "province": "BANTEN",
    "city": "KODYA TANGERANG",
    "address": "JL PERMATA SARI UTARA RUKO LITTLE ASIA 890 KARAWACI",
    "zip": 15115,
    "country": "Indonesia",
    "category": "cafe",
    "lat": -6.193261555,
    "lng": 106.624978
  },
  {
    "id": 4,
    "name": "MAXX COFFEE CORNER",
    "outlet_ket": "",
    "province": "BANTEN",
    "city": "KODYA TANGERANG",
    "address": "JL SILOAM NO.06 LIPPO KARAWACI",
    "zip": 15115,
    "country": "Indonesia",
    "category": "restaurant",
    "lat": -6.193261555,
    "lng": 106.624978
  },
  {
    "id": 5,
    "name": "VERONICA",
    "outlet_ket": "",
    "province": "BANTEN",
    "city": "KAB TANGERANG",
    "address": "JL GADING SERPONG / RUKO RODEO BLOK C/15 KELAPA DUA",
    "zip": 15810,
    "country": "Indonesia",
    "category": "cafe",
    "lat": -6.242935558,
    "lng": 106.566641
  },
  {
    "id": 6,
    "name": "VERMOGEN",
    "outlet_ket": "NO-NIK",
    "province": "BANTEN",
    "city": "KODYA TANGERANG SELATAN",
    "address": "JL PAHLAWAN SERIBU RUKO GOLDEN BOULEVARD BLOK O NO.12 BSD CITY",
    "zip": 15320,
    "country": "Indonesia",
    "category": "cafe",
    "lat": -6.274490001,
    "lng": 106.65863
  },
  {
    "id": 7,
    "name": "MAXX COFFEE SILOAM INTL",
    "outlet_ket": "",
    "province": "BANTEN",
    "city": "KAB TANGERANG",
    "address": "JL SILOAM NO 6 LIPPO KARAWACI 1600",
    "zip": 15810,
    "country": "Indonesia",
    "category": "restaurant",
    "lat": -6.242935558,
    "lng": 106.566641
  },
  {
    "id": 8,
    "name": "PT BETMUR JAYA ABADI",
    "outlet_ket": "",
    "province": "BANTEN",
    "city": "KODYA TANGERANG",
    "address": "JL BARATA TAMA 2 NO 126",
    "zip": 15157,
    "country": "Indonesia",
    "category": "restaurant",
    "lat": -6.214639985,
    "lng": 106.70849
  },
  {
    "id": 9,
    "name": "COCKTAIL FAIRY",
    "outlet_ket": "",
    "province": "BANTEN",
    "city": "KODYA TANGERANG SELATAN",
    "address": "JL PAHLAWAN SERIBU RUKO GOLDEN BOLEVOUR BLOK 1 NO 3-5 BSD CITY",
    "zip": 15321,
    "country": "Indonesia",
    "category": "cafe",
    "lat": -6.274955756,
    "lng": 106.6577469
  },
  {
    "id": 10,
    "name": "GRAND ROYAL SPA",
    "outlet_ket": "",
    "province": "BANTEN",
    "city": "KODYA TANGERANG SELATAN",
    "address": "RUKO DOT CAM NO 11/12 GADING SERPONG",
    "zip": 15311,
    "country": "Indonesia",
    "category": "cafe",
    "lat": -6.313066374,
    "lng": 106.6771865
  },
  {
    "id": 11,
    "name": "SILOG +",
    "outlet_ket": "",
    "province": "BANTEN",
    "city": "KODYA TANGERANG SELATAN",
    "address": "RUKO BOULSENA BIG GADING SERPONG BE22",
    "zip": 15311,
    "country": "Indonesia",
    "category": "restaurant",
    "lat": -6.323169999,
    "lng": 106.66104
  },
  {
    "id": 12,
    "name": "MAXX COFFE BETON JUNCTION",
    "outlet_ket": "",
    "province": "BANTEN",
    "city": "KAB TANGERANG",
    "address": "JL BOULEVAERD PALEM RAYA NO38 LIPPO VILLAGE",
    "zip": 15810,
    "country": "Indonesia",
    "category": "restaurant",
    "lat": -6.312419999,
    "lng": 106.5818
  },
  {
    "id": 13,
    "name": "MAXX COFFEE FK UPH",
    "outlet_ket": "",
    "province": "BANTEN",
    "city": "KAB TANGERANG",
    "address": "JL BOULEVARD PALEM RAYA LIPPO VILLAGE",
    "zip": 15810,
    "country": "Indonesia",
    "category": "restaurant",
    "lat": -6.228501098,
    "lng": 106.6093984
  },
  {
    "id": 14,
    "name": "DIVA KARAOKE ALAM SUTERA",
    "outlet_ket": "",
    "province": "BANTEN",
    "city": "KAB TANGERANG",
    "address": "JL ALAM SUTERA BOULEVARD RUKO ASTC BLOK 10 F NO 18-19",
    "zip": 15810,
    "country": "Indonesia",
    "category": "cafe",
    "lat": -6.093540008,
    "lng": 106.68294
  },
  {
    "id": 15,
    "name": "PONDOK KEMANGI BSD",
    "outlet_ket": "",
    "province": "BANTEN",
    "city": "KODYA TANGERANG SELATAN",
    "address": "JL RAYA SERPONG NO 201 BSD SEKTOR 6 NO 7",
    "zip": 15322,
    "country": "Indonesia",
    "category": "restaurant",
    "lat": -6.312816318,
    "lng": 106.6605129
  },
  {
    "id": 16,
    "name": "MAXX COFFEE TANG CITY",
    "outlet_ket": "",
    "province": "BANTEN",
    "city": "KAB TANGERANG",
    "address": "JL JENDRAL SUDIRMAN CIKOKOL",
    "zip": 15720,
    "country": "Indonesia",
    "category": "restaurant",
    "lat": -6.280642156,
    "lng": 106.7128863
  },
  {
    "id": 17,
    "name": "MERCURE HOTEL",
    "outlet_ket": "",
    "province": "BANTEN",
    "city": "KODYA TANGERANG SELATAN",
    "address": "JL ALAM SUTRA BOULEVARD KAV 23 ALAM SUTERA SERPONG",
    "zip": 15325,
    "country": "Indonesia",
    "category": "bar",
    "lat": -6.243332659,
    "lng": 106.6535525
  },
  {
    "id": 18,
    "name": "LINK NET",
    "outlet_ket": "",
    "province": "BANTEN",
    "city": "KAB TANGERANG",
    "address": "LIPPO CYBERPARK JL BULEVAR GAJAH MADA NO 2170",
    "zip": 15810,
    "country": "Indonesia",
    "category": "restaurant",
    "lat": -6.242935558,
    "lng": 106.566641
  },
  {
    "id": 19,
    "name": "KANTIN BIRU/ANEKA JUS",
    "outlet_ket": "",
    "province": "BANTEN",
    "city": "KAB TANGERANG",
    "address": "BASEMENT PARKIRAN BIRU SUPERMALL KARAWACI",
    "zip": 15810,
    "country": "Indonesia",
    "category": "restaurant",
    "lat": -6.242935558,
    "lng": 106.566641
  },
  {
    "id": 20,
    "name": "WAKACAO",
    "outlet_ket": "",
    "province": "BANTEN",
    "city": "KODYA TANGERANG SELATAN",
    "address": "RUKO PASAR MODERN PARAMOUNT BLOK F-10 JL BOULEVARD RAYA GADING SERPONG",
    "zip": 15311,
    "country": "Indonesia",
    "category": "restaurant",
    "lat": -6.29387163,
    "lng": 106.6669708
  },
  {
    "id": 21,
    "name": "BROTHER STEAK",
    "outlet_ket": "",
    "province": "BANTEN",
    "city": "KAB TANGERANG",
    "address": "SALSA FOOD CITY NO 23 SAMPING DUCK HOUSE",
    "zip": 15810,
    "country": "Indonesia",
    "category": "restaurant",
    "lat": -6.242935558,
    "lng": 106.566641
  },
  {
    "id": 22,
    "name": "NOVOTEL TANGCITY",
    "outlet_ket": "",
    "province": "BANTEN",
    "city": "KODYA TANGERANG",
    "address": "TANGCTY SUPER BLOK JL JENDRAL SUDIRMAN NO 1",
    "zip": 15118,
    "country": "Indonesia",
    "category": "bar",
    "lat": -6.180260017,
    "lng": 106.64341
  },
  {
    "id": 23,
    "name": "AYAM GEPUK IMAN",
    "outlet_ket": "",
    "province": "BANTEN",
    "city": "KODYA TANGERANG",
    "address": "JL IMAM BONJOL NO 40 SEBRANG SPBU DEKAT HOTEL OLIVE",
    "zip": 15115,
    "country": "Indonesia",
    "category": "restaurant",
    "lat": -6.179399991,
    "lng": 106.62668
  },
  {
    "id": 24,
    "name": "SILOAM CLINIC GADING SERPONG",
    "outlet_ket": "",
    "province": "BANTEN",
    "city": "KAB TANGERANG",
    "address": "RUKO BOULEVARD FIFTH AVENUE BLOK A NO 36 JL BOULEVARD GADING SERPONG TANGERANG",
    "zip": 15810,
    "country": "Indonesia",
    "category": "restaurant",
    "lat": -6.22989002,
    "lng": 106.63673
  },
  {
    "id": 25,
    "name": "SILOAM CLINIC PERMATA",
    "outlet_ket": "",
    "province": "BANTEN",
    "city": "KAB TANGERANG",
    "address": "JL PERMATA SARI NO 838 LIPPO KARAWACI KABUPATEN TANGERANG",
    "zip": 15810,
    "country": "Indonesia",
    "category": "restaurant",
    "lat": -6.224530002,
    "lng": 106.58818
  },
  {
    "id": 26,
    "name": "SILOAM CLINIC GRAHA RAYA",
    "outlet_ket": "",
    "province": "BANTEN",
    "city": "KODYA TANGERANG SELATAN",
    "address": "KOMP RUKO MELIA WALK BLOK MD B NO 17 JL BOULEVARD GRAHA RAYA",
    "zip": 15324,
    "country": "Indonesia",
    "category": "restaurant",
    "lat": -6.245680017,
    "lng": 106.67269
  },
  {
    "id": 27,
    "name": "SILOAM CLINIC CYBERPARK",
    "outlet_ket": "",
    "province": "BANTEN",
    "city": "KODYA TANGERANG",
    "address": "JL.BOULEVARD GAJAH MADA NO 2001 LIPPO CYBERPARK LIPPO KARAWACI",
    "zip": 15139,
    "country": "Indonesia",
    "category": "restaurant",
    "lat": -6.219075,
    "lng": 106.6201388
  },
  {
    "id": 28,
    "name": "SILOAM CLINIC CISOKA",
    "outlet_ket": "",
    "province": "BANTEN",
    "city": "KODYA TANGERANG",
    "address": "JL BOULEVARD GAJAH MADA NO 2001 LIPPO CYBEPARK LIPPO KARAWACI",
    "zip": 15139,
    "country": "Indonesia",
    "category": "restaurant",
    "lat": -6.219075,
    "lng": 106.6201388
  },
  {
    "id": 29,
    "name": "KONG DJIE COFFEE",
    "outlet_ket": "",
    "province": "BANTEN",
    "city": "KODYA TANGERANG SELATAN",
    "address": "JL CEMARA / RUKO PASAR MODERN BSD BLOK R NO 23",
    "zip": 15310,
    "country": "Indonesia",
    "category": "restaurant",
    "lat": -6.306121114,
    "lng": 106.6858304
  },
  {
    "id": 30,
    "name": "TELAGA SEMAR INDAH",
    "outlet_ket": "",
    "province": "BANTEN",
    "city": "KODYA TANGERANG",
    "address": "JL HASYIM ASHARI DEPAN DANAU CIPONDOH PEMANCINGAN",
    "zip": 15148,
    "country": "Indonesia",
    "category": "restaurant",
    "lat": -6.19383726,
    "lng": 106.6750849
  },
  {
    "id": 31,
    "name": "WARUNG DESTI",
    "outlet_ket": "",
    "province": "BANTEN",
    "city": "KAB TANGERANG",
    "address": "JL BINONG RAYA NO 15 SEBELUM PERTIGAAN UBUD",
    "zip": 15810,
    "country": "Indonesia",
    "category": "restaurant",
    "lat": -6.229459986,
    "lng": 106.59052
  },
  {
    "id": 32,
    "name": "MIE BANGKA LUCKY",
    "outlet_ket": "",
    "province": "BANTEN",
    "city": "KAB TANGERANG",
    "address": "KOMPLEK RUKO PASAR MODERN PARAMONT BLOK B6 TANGERANG",
    "zip": 15810,
    "country": "Indonesia",
    "category": "restaurant",
    "lat": -6.242935558,
    "lng": 106.566641
  },
  {
    "id": 33,
    "name": "IBIS STYLE AIRPORT",
    "outlet_ket": "",
    "province": "BANTEN",
    "city": "KODYA TANGERANG",
    "address": "JL RAYA BANDARA SOEKARNO-HATTA",
    "zip": 15125,
    "country": "Indonesia",
    "category": "bar",
    "lat": -6.108526033,
    "lng": 106.6853825
  },
  {
    "id": 35,
    "name": "INFINITY HEALTH MASSAGE",
    "outlet_ket": "",
    "province": "BANTEN",
    "city": "KODYA TANGERANG SELATAN",
    "address": "JL ALAM SUTERA RAYA  RUKO ASTC BLOK 10 G NO 16 (SEBRANG LIVING WOLD)",
    "zip": 15325,
    "country": "Indonesia",
    "category": "cafe",
    "lat": -6.093540008,
    "lng": 106.68294
  },
  {
    "id": 36,
    "name": "MELON MASSAGE",
    "outlet_ket": "",
    "province": "BANTEN",
    "city": "KODYA TANGERANG SELATAN",
    "address": "JL PAHLAWAN SERIBU RUKO GODEN BOULEVARD BLOK D-31 BSD CITY",
    "zip": 15311,
    "country": "Indonesia",
    "category": "cafe",
    "lat": -6.275420015,
    "lng": 106.65968
  },
  {
    "id": 37,
    "name": "MOMI & TOY'S CREPERIE",
    "outlet_ket": "",
    "province": "BANTEN",
    "city": "KODYA TANGERANG",
    "address": "MAXX BOX LIPPO VILLAGE KARAWACI",
    "zip": 15115,
    "country": "Indonesia",
    "category": "restaurant",
    "lat": -6.193261555,
    "lng": 106.624978
  },
  {
    "id": 38,
    "name": "GREAT WESTERN RESORT",
    "outlet_ket": "",
    "province": "BANTEN",
    "city": "KODYA TANGERANG SELATAN",
    "address": "JL MH THAMRIN KM 27 KEBON NANAS COKOKOL SERPONG",
    "zip": 15311,
    "country": "Indonesia",
    "category": "bar",
    "lat": -6.084910001,
    "lng": 106.63387
  },
  {
    "id": 39,
    "name": "THREE FOLKS BINTARO",
    "outlet_ket": "",
    "province": "BANTEN",
    "city": "KODYA TANGERANG SELATAN",
    "address": "JL ELANG RAYA B9/R7",
    "zip": 15229,
    "country": "Indonesia",
    "category": "cafe",
    "lat": -6.113320001,
    "lng": 106.51173
  },
  {
    "id": 40,
    "name": "MIE ACEH BANG RIZAL",
    "outlet_ket": "",
    "province": "BANTEN",
    "city": "KAB TANGERANG",
    "address": "JL BINONG RAYA NO 2 RUKO FUTSAL",
    "zip": 15810,
    "country": "Indonesia",
    "category": "restaurant",
    "lat": -6.228849993,
    "lng": 106.59356
  },
  {
    "id": 41,
    "name": "WARUNG VALEN -JG",
    "outlet_ket": "",
    "province": "BANTEN",
    "city": "KAB TANGERANG",
    "address": "KARAWACI RESIDENCE BLOK B3 NO 15",
    "zip": 15820,
    "country": "Indonesia",
    "category": "restaurant",
    "lat": -6.251100007,
    "lng": 106.60521
  },
  {
    "id": 42,
    "name": "MAXX COFFEE D'BREEZE BSD",
    "outlet_ket": "",
    "province": "BANTEN",
    "city": "KAB TANGERANG",
    "address": "JL BSD GREEN OFFICE PARK SAMPORA CISAUK TANGERANG",
    "zip": 15345,
    "country": "Indonesia",
    "category": "cafe",
    "lat": -6.300289327,
    "lng": 106.6515004
  },
  {
    "id": 43,
    "name": "RM SOP TULANG NUSANTARA",
    "outlet_ket": "",
    "province": "BANTEN",
    "city": "KODYA TANGERANG SELATAN",
    "address": "JL KIHAJAR DEWANTARA DEKAT SEKOLAH BINTANG KEJORA",
    "zip": 15413,
    "country": "Indonesia",
    "category": "restaurant",
    "lat": -6.300321175,
    "lng": 106.740201
  },
  {
    "id": 44,
    "name": "NASI UDUK OMAH",
    "outlet_ket": "",
    "province": "BANTEN",
    "city": "KAB TANGERANG",
    "address": "JL ISLAMIC CENTER NO 44 SAMPING STEM MOBIL DAN MOTOR",
    "zip": 15810,
    "country": "Indonesia",
    "category": "restaurant",
    "lat": -6.242935558,
    "lng": 106.566641
  },
  {
    "id": 45,
    "name": "WARUNG H EDY",
    "outlet_ket": "",
    "province": "BANTEN",
    "city": "KAB TANGERANG",
    "address": "JL ISLAMIC CENTER NO 1 PERTIGAAN KARAWACI",
    "zip": 15810,
    "country": "Indonesia",
    "category": "restaurant",
    "lat": -6.242935558,
    "lng": 106.566641
  },
  {
    "id": 46,
    "name": "TORANG PERASA",
    "outlet_ket": "",
    "province": "BANTEN",
    "city": "KAB TANGERANG",
    "address": "GADING SERPONG RUKO BLITZ BLOK D NO 15",
    "zip": 15810,
    "country": "Indonesia",
    "category": "restaurant",
    "lat": -6.093119991,
    "lng": 106.68229
  },
  {
    "id": 47,
    "name": "CAFE UNLIMITED LARANGAN",
    "outlet_ket": "",
    "province": "BANTEN",
    "city": "KODYA TANGERANG",
    "address": "JL PESANTREN KREO SELATAN LARANGAN DEKAT INDOMART PESANTREN",
    "zip": 15156,
    "country": "Indonesia",
    "category": "restaurant",
    "lat": -6.238689057,
    "lng": 106.7434766
  },
  {
    "id": 48,
    "name": "BLUE MASSAGE",
    "outlet_ket": "",
    "province": "BANTEN",
    "city": "KAB TANGERANG",
    "address": "GADING SERPONG PARAMOONT",
    "zip": 15810,
    "country": "Indonesia",
    "category": "cafe",
    "lat": -6.242935558,
    "lng": 106.566641
  },
  {
    "id": 49,
    "name": "STROWBERRY MASSAGE",
    "outlet_ket": "",
    "province": "BANTEN",
    "city": "KAB TANGERANG",
    "address": "RUKO DOTCOM R 17 GADING SERPONG",
    "zip": 15810,
    "country": "Indonesia",
    "category": "cafe",
    "lat": -6.242935558,
    "lng": 106.566641
  },
  {
    "id": 50,
    "name": "CYBER CITY GAME ONLINE",
    "outlet_ket": "",
    "province": "BANTEN",
    "city": "KODYA TANGERANG SELATAN",
    "address": "JL GRAHA RAYA RUKO CENDANA LOKA BLOK GI",
    "zip": 15318,
    "country": "Indonesia",
    "category": "cafe",
    "lat": -6.310724665,
    "lng": 106.6782798
  },
  {
    "id": 51,
    "name": "SAMSON GYM",
    "outlet_ket": "",
    "province": "BANTEN",
    "city": "KODYA TANGERANG SELATAN",
    "address": "JL PALEM RAYA NO 7 LT 2 INDOMARET",
    "zip": 15314,
    "country": "Indonesia",
    "category": "cafe",
    "lat": -6.229350016,
    "lng": 106.59713
  },
  {
    "id": 52,
    "name": "RM AYAM RUMAHAN",
    "outlet_ket": "",
    "province": "BANTEN",
    "city": "KAB TANGERANG",
    "address": "JL. KELAPA PUAN RAYA BLOK AF",
    "zip": 15810,
    "country": "Indonesia",
    "category": "restaurant",
    "lat": -6.230185431,
    "lng": 106.6258987
  },
  {
    "id": 53,
    "name": "WR CAHAYA",
    "outlet_ket": "",
    "province": "BANTEN",
    "city": "KODYA TANGERANG SELATAN",
    "address": "KP. PRIAYANGAN DEPAN WTC MATAHARI BSD",
    "zip": 15326,
    "country": "Indonesia",
    "category": "restaurant",
    "lat": -6.17683,
    "lng": 106.63806
  },
  {
    "id": 54,
    "name": "AYAM GORENG WAKIL PRESIDEN",
    "outlet_ket": "",
    "province": "BANTEN",
    "city": "KODYA TANGERANG SELATAN",
    "address": "RAYA KELAPA SAWIT SEKTOR 1E BLOK BD 12 NO 3 GADING SERPPONG",
    "zip": 15311,
    "country": "Indonesia",
    "category": "restaurant",
    "lat": -6.251380004,
    "lng": 106.61466
  },
  {
    "id": 55,
    "name": "WARUNG TETEH",
    "outlet_ket": "",
    "province": "BANTEN",
    "city": "KAB TANGERANG",
    "address": "JL KELAPA GADING BARAT BLOK AG NO 15",
    "zip": 15810,
    "country": "Indonesia",
    "category": "restaurant",
    "lat": -6.233344805,
    "lng": 106.6279235
  },
  {
    "id": 56,
    "name": "OVERTASTE",
    "outlet_ket": "",
    "province": "BANTEN",
    "city": "KAB TANGERANG",
    "address": "BLOK A 04 JL GADING SERPONG BOULEVARD NO 01",
    "zip": 15810,
    "country": "Indonesia",
    "category": "restaurant",
    "lat": -6.234290016,
    "lng": 106.6318
  },
  {
    "id": 57,
    "name": "WR IBU RENI PINANG",
    "outlet_ket": "",
    "province": "BANTEN",
    "city": "KODYA TANGERANG",
    "address": "JL KH HASYIM ASHARI NO 25 DEPAN GEDUNG AEC CAMPUS",
    "zip": 15145,
    "country": "Indonesia",
    "category": "restaurant",
    "lat": -6.201209997,
    "lng": 106.68896
  },
  {
    "id": 58,
    "name": "WARTEG YANTI RADEN SALEH",
    "outlet_ket": "",
    "province": "BANTEN",
    "city": "KODYA TANGERANG",
    "address": "JL. RADEN SALEH 2-6",
    "zip": 15157,
    "country": "Indonesia",
    "category": "restaurant",
    "lat": -6.204629981,
    "lng": 106.71844
  },
  {
    "id": 60,
    "name": "WR BETAWI AYAM BAKAR LEKTO",
    "outlet_ket": "",
    "province": "BANTEN",
    "city": "KODYA TANGERANG SELATAN",
    "address": "JL BUKTI RAYA DEPAN TELKOM",
    "zip": 15417,
    "country": "Indonesia",
    "category": "restaurant",
    "lat": -6.17683,
    "lng": 106.63806
  },
  {
    "id": 61,
    "name": "KONG DJIE COFFE VIPER",
    "outlet_ket": "",
    "province": "BANTEN",
    "city": "KODYA TANGERANG",
    "address": "VILA PERMATA SPORT CLUB KARAWACI",
    "zip": 15115,
    "country": "Indonesia",
    "category": "restaurant",
    "lat": -6.193261555,
    "lng": 106.624978
  },
  {
    "id": 62,
    "name": "GRAND BOWLING",
    "outlet_ket": "",
    "province": "BANTEN",
    "city": "KODYA TANGERANG SELATAN",
    "address": "MALL WTC LT 5 JL RAYA SERPONG",
    "zip": 15326,
    "country": "Indonesia",
    "category": "cafe",
    "lat": -6.326534886,
    "lng": 106.671284
  },
  {
    "id": 63,
    "name": "REFLEKSI MUGI WARAS",
    "outlet_ket": "",
    "province": "BANTEN",
    "city": "KODYA TANGERANG SELATAN",
    "address": "WTC MATAHARI BSD/NO 86 MALL BSD SAMPING PARKIR MOTOR",
    "zip": 15326,
    "country": "Indonesia",
    "category": "restaurant",
    "lat": -6.17683,
    "lng": 106.63806
  },
  {
    "id": 64,
    "name": "ZOOM PALACE CAFE & RESTO",
    "outlet_ket": "",
    "province": "BANTEN",
    "city": "KODYA TANGERANG SELATAN",
    "address": "FLAVOR BLISS UNIT 5 KAV 6 ALAM SUTERA",
    "zip": 15325,
    "country": "Indonesia",
    "category": "cafe",
    "lat": -6.35989561,
    "lng": 106.7449968
  },
  {
    "id": 65,
    "name": "TEXAS VAPOR TANGERANG",
    "outlet_ket": "",
    "province": "BANTEN",
    "city": "KAB TANGERANG",
    "address": "JL TAMAN PALEM RAYA RUKO D'CAPTIVA BLOK F NO 3",
    "zip": 15710,
    "country": "Indonesia",
    "category": "cafe",
    "lat": -6.195354965,
    "lng": 106.4983451
  },
  {
    "id": 66,
    "name": "LACENTRO",
    "outlet_ket": "",
    "province": "BANTEN",
    "city": "KAB TANGERANG",
    "address": "PASAR MODERN PARAMOUNT RUKO THEMATIK BLOK N NO 33",
    "zip": 15810,
    "country": "Indonesia",
    "category": "cafe",
    "lat": -6.242935558,
    "lng": 106.566641
  },
  {
    "id": 67,
    "name": "THE BUNKER CAFE",
    "outlet_ket": "",
    "province": "BANTEN",
    "city": "KAB TANGERANG",
    "address": "RUKO GRAHA BOULEVARDBLOK D NO 10-11 GADING SERPONG",
    "zip": 15810,
    "country": "Indonesia",
    "category": "restaurant",
    "lat": -6.242935558,
    "lng": 106.566641
  },
  {
    "id": 68,
    "name": "PP MALL HETROPOLIS TOWN SQUARE",
    "outlet_ket": "",
    "province": "BANTEN",
    "city": "KODYA TANGERANG",
    "address": "MALL METROPOLIS TOWN SQURE. JL. HARTONO RAYA MODERN-KOTA TANGERANG",
    "zip": 15117,
    "country": "Indonesia",
    "category": "restaurant",
    "lat": -6.19782,
    "lng": 106.63678
  },
  {
    "id": 69,
    "name": "RAJA AYAM BAKAR",
    "outlet_ket": "",
    "province": "BANTEN",
    "city": "KAB TANGERANG",
    "address": "JL RAYA DANAU KELAPA DUA DEPAN UNIV GUNADARMA",
    "zip": 15810,
    "country": "Indonesia",
    "category": "restaurant",
    "lat": -6.242935558,
    "lng": 106.566641
  },
  {
    "id": 70,
    "name": "ANGRY FOODS STREET",
    "outlet_ket": "",
    "province": "BANTEN",
    "city": "KODYA TANGERANG",
    "address": "JL. KH.HASYIM ASHARI NO.23. SAMPING SOP JANDA DEPAN DANAU CIPONDOH",
    "zip": 15148,
    "country": "Indonesia",
    "category": "restaurant",
    "lat": -6.193809992,
    "lng": 106.67551
  },
  {
    "id": 71,
    "name": "PRIMERO CAFFEE CILEDUG",
    "outlet_ket": "",
    "province": "BANTEN",
    "city": "KODYA TANGERANG",
    "address": "JL. RADEN FATAH DEKAT KELINIK SUDIMARA BARAT NO. 104",
    "zip": 15151,
    "country": "Indonesia",
    "category": "restaurant",
    "lat": -6.225979741,
    "lng": 106.7050501
  },
  {
    "id": 72,
    "name": "IMPERIAL LAMIAN SMS",
    "outlet_ket": "",
    "province": "BANTEN",
    "city": "KAB TANGERANG",
    "address": "SUMMARECON MALL SERPONG GF 233 AJI BOULEVORD GADING SERPONG TANGERANG",
    "zip": 15810,
    "country": "Indonesia",
    "category": "restaurant",
    "lat": -6.23977,
    "lng": 106.62911
  },
  {
    "id": 73,
    "name": "MIE AYAM BANYUMAS A H",
    "outlet_ket": "",
    "province": "BANTEN",
    "city": "KODYA TANGERANG",
    "address": "JL. PAWON RAYA NO.21 DEKAT POM BENSIN MITRA HARKIT KARAWACI",
    "zip": 15115,
    "country": "Indonesia",
    "category": "restaurant",
    "lat": -6.193261555,
    "lng": 106.624978
  },
  {
    "id": 74,
    "name": "CHOP BUNTUT CAK YO LIVING",
    "outlet_ket": "",
    "province": "BANTEN",
    "city": "KODYA TANGERANG SELATAN",
    "address": "JL. ALAM SUTRA BOULEVARD KAV 21 G-23&G-27",
    "zip": 15320,
    "country": "Indonesia",
    "category": "restaurant",
    "lat": -6.243370006,
    "lng": 106.65358
  },
  {
    "id": 75,
    "name": "TOKOKU.ID",
    "outlet_ket": "",
    "province": "BANTEN",
    "city": "KODYA TANGERANG",
    "address": "RUKO CYBERPARKJL BOULEVARD GAJAH MADA NO.2096 KARAWACI TANGERANG",
    "zip": 15139,
    "country": "Indonesia",
    "category": "restaurant",
    "lat": -6.219075,
    "lng": 106.6201388
  },
  {
    "id": 76,
    "name": "WARUNG KOPI AGUS RODIKA",
    "outlet_ket": "",
    "province": "BANTEN",
    "city": "KODYA TANGERANG",
    "address": "JL RADEN SALEH NO 100 DEPAN BANK BRI",
    "zip": 15157,
    "country": "Indonesia",
    "category": "restaurant",
    "lat": -6.212610014,
    "lng": 106.71159
  },
  {
    "id": 77,
    "name": "WOODEN BAR",
    "outlet_ket": "",
    "province": "BANTEN",
    "city": "KAB TANGERANG",
    "address": "PASAR MODERN PARAMOUNT BLOK H NO.18",
    "zip": 15810,
    "country": "Indonesia",
    "category": "cafe",
    "lat": -6.242935558,
    "lng": 106.566641
  },
  {
    "id": 78,
    "name": "GRAND SOLL MARINA HOTEL",
    "outlet_ket": "",
    "province": "BANTEN",
    "city": "KODYA TANGERANG",
    "address": "JL. GATOT SUBROTO KM.NO. 53",
    "zip": 15137,
    "country": "Indonesia",
    "category": "bar",
    "lat": -6.197999979,
    "lng": 106.5773
  },
  {
    "id": 79,
    "name": "SAUNG BARATA KARANG TENGAH",
    "outlet_ket": "",
    "province": "BANTEN",
    "city": "KODYA TANGERANG",
    "address": "JL. BARATA NO. SATU",
    "zip": 15157,
    "country": "Indonesia",
    "category": "restaurant",
    "lat": -6.212566455,
    "lng": 106.713545
  },
  {
    "id": 80,
    "name": "ATRIA HOTEL GADING SERPONG",
    "outlet_ket": "",
    "province": "BANTEN",
    "city": "KAB TANGERANG",
    "address": "JL BOULEVARD RAYA GADING SERPONG KAV 2",
    "zip": 15810,
    "country": "Indonesia",
    "category": "bar",
    "lat": -6.243619996,
    "lng": 106.61794
  },
  {
    "id": 81,
    "name": "SILOAM CLINIC PONDOK CABE",
    "outlet_ket": "",
    "province": "BANTEN",
    "city": "KODYA TANGERANG SELATAN",
    "address": "JL.RAYA PONDOK CABE UDIK RUKO SEBRANG PERUMAHAN TAMAN HARMONI NO.5",
    "zip": 15418,
    "country": "Indonesia",
    "category": "restaurant",
    "lat": -6.346709987,
    "lng": 106.75336
  },
  {
    "id": 82,
    "name": "WARUNG NASI IBU NANI",
    "outlet_ket": "",
    "province": "BANTEN",
    "city": "KODYA TANGERANG",
    "address": "JL IRIGASI SIPON CIPONDOH",
    "zip": 15148,
    "country": "Indonesia",
    "category": "restaurant",
    "lat": -6.18665459,
    "lng": 106.6715801
  },
  {
    "id": 83,
    "name": "WR NANA",
    "outlet_ket": "",
    "province": "BANTEN",
    "city": "KODYA TANGERANG",
    "address": "JL H TAMRIN SAMPING INDOMARET DEKAT CARDI",
    "zip": 15143,
    "country": "Indonesia",
    "category": "restaurant",
    "lat": -6.221337,
    "lng": 106.6438007
  },
  {
    "id": 84,
    "name": "WARKOP ANIS",
    "outlet_ket": "",
    "province": "BANTEN",
    "city": "KODYA TANGERANG SELATAN",
    "address": "BSD BLOK E NO 26 SEKTOT DEPAN DEPARTEMEN RAWA BUNTU",
    "zip": 15318,
    "country": "Indonesia",
    "category": "restaurant",
    "lat": -6.310724665,
    "lng": 106.6782798
  },
  {
    "id": 85,
    "name": "WR HENI",
    "outlet_ket": "",
    "province": "BANTEN",
    "city": "KODYA TANGERANG",
    "address": "JL MH THAMRIN SERPONG SEBRANG BAKSO BONAS DEKAT AGEN SANTOSO",
    "zip": 15143,
    "country": "Indonesia",
    "category": "restaurant",
    "lat": -6.221337,
    "lng": 106.6438007
  },
  {
    "id": 86,
    "name": "KWETIAU AKANG",
    "outlet_ket": "",
    "province": "BANTEN",
    "city": "KAB TANGERANG",
    "address": "JL. BOULEVARD RAYA BLOK AA3 NO.5",
    "zip": 15810,
    "country": "Indonesia",
    "category": "restaurant",
    "lat": -6.164009979,
    "lng": 106.56306
  },
  {
    "id": 87,
    "name": "SOCIAL BOX",
    "outlet_ket": "",
    "province": "BANTEN",
    "city": "KODYA TANGERANG SELATAN",
    "address": "JL PAHLAWAN SERIBU NO 3A SAMPING POM BENSIN SHELL",
    "zip": 15311,
    "country": "Indonesia",
    "category": "cafe",
    "lat": -6.285869985,
    "lng": 106.66441
  },
  {
    "id": 88,
    "name": "RED",
    "outlet_ket": "",
    "province": "BANTEN",
    "city": "KAB TANGERANG",
    "address": "RUKO MARDIGRES KC.2 NO.11 CITRA RAYA",
    "zip": 15710,
    "country": "Indonesia",
    "category": "cafe",
    "lat": -6.252654102,
    "lng": 106.5128275
  },
  {
    "id": 89,
    "name": "CAFE GARASI SANTAI",
    "outlet_ket": "",
    "province": "BANTEN",
    "city": "KODYA TANGERANG SELATAN",
    "address": "KP. PONDOK JAGUNG SAMING UP NORMAL NO. 137",
    "zip": 15326,
    "country": "Indonesia",
    "category": "restaurant",
    "lat": -6.17683,
    "lng": 106.63806
  },
  {
    "id": 90,
    "name": "SEAFOOD QU",
    "outlet_ket": "",
    "province": "BANTEN",
    "city": "KAB TANGERANG",
    "address": "JL. GADING GOLF BOULEVARD RUKO DIAMOND 3 NO. 91",
    "zip": 15810,
    "country": "Indonesia",
    "category": "restaurant",
    "lat": -6.24378,
    "lng": 106.63248
  },
  {
    "id": 91,
    "name": "GRAND QUICK SPA",
    "outlet_ket": "",
    "province": "BANTEN",
    "city": "KODYA TANGERANG SELATAN",
    "address": "JL SUTERA OLIVIA X NO 9 RUKO ELEMENT BLOK 6 NO 8",
    "zip": 15320,
    "country": "Indonesia",
    "category": "cafe",
    "lat": -6.236779986,
    "lng": 106.65591
  },
  {
    "id": 92,
    "name": "WR STEM MOBIL PAK JO MELATI MAS",
    "outlet_ket": "",
    "province": "BANTEN",
    "city": "KODYA TANGERANG SELATAN",
    "address": "JL VILLA MELATI MAS RAYA TEMPAT PENCUCIAN MOBIL",
    "zip": 15323,
    "country": "Indonesia",
    "category": "restaurant",
    "lat": -6.17683,
    "lng": 106.63806
  },
  {
    "id": 93,
    "name": "SOSITI COFFEE BAR",
    "outlet_ket": "",
    "province": "BANTEN",
    "city": "KAB TANGERANG",
    "address": "FORESTA BUSINESS LOFT SIGNATURE BLOK C NO 6 BSD",
    "zip": 15339,
    "country": "Indonesia",
    "category": "cafe",
    "lat": -6.294726452,
    "lng": 106.6470341
  },
  {
    "id": 94,
    "name": "AVIARY HOTEL",
    "outlet_ket": "",
    "province": "BANTEN",
    "city": "KODYA TANGERANG SELATAN",
    "address": "JL. BOULEVARD BINTARO JAYA BLOK B7 NO D3-D3A",
    "zip": 15220,
    "country": "Indonesia",
    "category": "bar",
    "lat": -6.26618597,
    "lng": 106.6884616
  },
  {
    "id": 95,
    "name": "ALPHA",
    "outlet_ket": "NO-NIK",
    "province": "BANTEN",
    "city": "KODYA TANGERANG SELATAN",
    "address": "JL. PAHLAWAN SERIBU RUKO CBD BIDEX BLOK F NO.3",
    "zip": 15321,
    "country": "Indonesia",
    "category": "cafe",
    "lat": -6.274955756,
    "lng": 106.6577469
  },
  {
    "id": 96,
    "name": "CIEN",
    "outlet_ket": "",
    "province": "BANTEN",
    "city": "KODYA TANGERANG SELATAN",
    "address": "DE LATINOS CIUSTER BRAZILIA FLAMENJO BLOK D5 NO 23",
    "zip": 15318,
    "country": "Indonesia",
    "category": "cafe",
    "lat": -6.310724665,
    "lng": 106.6782798
  }
]